Longitude,Latitude,Title
103.84508966643547,1.3850969869082566,"amk"
103.93716055293469,1.3328855285307624,"bedok"
103.83975222595029,1.278604029532352,"central"
103.70234408177062,1.3511457864334573,"jurong"
103.84670982409857,1.3123442012770405,"tanglin"
103.77883793759092,1.4332850043061145,"woodlands"
103.98103923150593,1.3431877727562795,"airport"